City_ID,City,Country,Date,Lat,Lng,Max Temp,Humidity,Cloudiness,Wind Speed
6165406,thompson,CA,1644099168,55.7435,-97.8558,-7.47,86,100,4.74
6089245,norman wells,CA,1644099169,65.282,-126.8329,-3.51,90,97,6.85
4030556,rikitea,PF,1644099750,-23.1203,-134.9692,79.09,73,96,10.54
546105,nikolskoye,RU,1644098988,59.7035,30.7861,26.87,95,100,8.19
2136825,isangel,VU,1644099162,-19.55,169.2667,82.51,89,75,9.22
975436,mmabatho,ZA,1644099750,-25.85,25.6333,64.36,82,29,4.61
3450288,santa cruz cabralia,BR,1644099601,-16.2781,-39.0247,73.63,100,75,6.91
2126123,chokurdakh,RU,1644099751,70.6333,147.9167,-31.27,100,100,1.68
6201424,mataura,NZ,1644099751,-46.1927,168.8643,55.47,89,100,1.1
2074865,carnarvon,AU,1644099751,-24.8667,113.6333,77.07,88,75,9.22
2017155,saskylakh,RU,1644099752,71.9167,114.0833,-27.76,100,99,3.31
4020109,atuona,PF,1644099752,-9.8,-139.0333,79.03,77,6,22.24
3833367,ushuaia,AR,1644099551,-54.8,-68.3,56.82,58,40,24.16
5122534,jamestown,US,1644099702,42.097,-79.2353,19.04,33,20,4.61
100926,umm lajj,SA,1644099753,25.0213,37.2685,62.98,59,0,14.09
3471451,arraial do cabo,BR,1644099171,-22.9661,-42.0278,80.46,78,0,12.66
3430863,mar del plata,AR,1644098979,-38.0023,-57.5575,64.09,83,100,5.01
5546220,saint george,US,1644099302,37.1041,-113.5841,61.27,17,0,1.99
3831208,qaanaaq,GL,1644099753,77.484,-69.3632,1.17,97,100,2.62
2075265,busselton,AU,1644099754,-33.65,115.3333,66.04,90,18,6.85
935215,saint-philippe,RE,1644099754,-21.3585,55.7679,80.19,84,100,19.01
2171099,codrington,AU,1644099754,-38.2667,141.9667,63.64,66,52,11.77
964432,port alfred,ZA,1644099755,-33.5906,26.891,70.68,83,87,26.22
2395568,aplahoue,BJ,1644099755,6.9333,1.6833,77.4,71,0,4.83
3874787,punta arenas,CL,1644099599,-53.15,-70.9167,60.91,59,75,21.85
909863,luanshya,ZM,1644099755,-13.1367,28.4166,61.39,98,76,3.29
1787409,yangmei,CN,1644099756,24.1023,112.5618,41.63,91,100,3.04
337405,gambela,ET,1644099756,8.25,34.5833,80.38,27,98,0.54
2170577,cooma,AU,1644099756,-36.2333,149.1333,54.68,69,86,6.26
6180550,whitehorse,CA,1644099757,60.7161,-135.0538,27.1,82,100,11.99
86049,jalu,LY,1644099757,29.0331,21.5482,56.46,47,0,5.53
2206939,bluff,NZ,1644099757,-46.6,168.3333,55.8,65,62,12.5
3372707,ribeira grande,PT,1644098909,38.5167,-28.7,60.33,76,28,11.23
1507390,dikson,RU,1644099758,73.5069,80.5464,-19.23,100,99,3.18
5557293,sitka,US,1644099303,57.0531,-135.33,42.69,75,100,20.71
5106841,albany,US,1644099563,42.6001,-73.9662,17.1,55,3,3.0
1624041,ternate,ID,1644099758,0.8,127.4,79.7,83,100,9.13
1309937,maymyo,MM,1644099591,22.0333,96.4667,54.25,68,0,4.5
3366880,hermanus,ZA,1644099169,-34.4187,19.2345,72.9,83,26,14.67
3385899,tutoia,BR,1644099759,-2.7619,-42.2744,82.38,82,100,12.06
3424607,tasiilaq,GL,1644099759,65.6145,-37.6368,17.76,59,97,10.22
361291,hurghada,EG,1644099760,27.2574,33.8129,57.07,54,0,16.69
2613672,skorping,DK,1644099760,56.8363,9.8926,43.48,92,100,22.7
3981432,todos santos,MX,1644099760,23.45,-110.2167,74.1,50,7,4.07
1611406,chaiyaphum,TH,1644099761,15.75,102.0,72.05,60,78,11.14
2015306,tiksi,RU,1644099235,71.6872,128.8694,-22.47,98,91,7.61
2287778,jacqueville,CI,1644099761,5.2052,-4.4146,82.31,86,10,8.3
6185377,yellowknife,CA,1644099621,62.456,-114.3525,-9.71,86,20,5.75
582447,almaznyy,RU,1644099762,48.0448,40.045,19.54,94,15,5.59
1735799,sri aman,MY,1644099762,1.2376,111.4621,75.25,94,100,0.0
2163355,hobart,AU,1644099304,-42.8794,147.3294,64.02,72,75,1.01
2022572,khatanga,RU,1644099019,71.9667,102.5,-24.05,96,99,3.36
3456248,nortelandia,BR,1644099762,-14.4547,-56.8028,80.38,81,78,2.75
6355222,yulara,AU,1644098979,-25.2406,130.9889,69.64,49,0,9.22
3369157,cape town,ZA,1644099164,-33.9258,18.4232,73.11,63,5,1.01
5866583,kodiak,US,1644099763,57.79,-152.4072,36.91,87,100,5.75
2013727,vanavara,RU,1644099763,60.34,102.2797,16.77,93,100,10.0
124274,mehriz,IR,1644099764,31.5917,54.4318,37.9,28,0,3.06
3883457,lebu,CL,1644099764,-37.6167,-73.65,62.2,75,1,20.09
2028164,deputatskiy,RU,1644099102,69.3,139.9,-30.03,97,94,2.91
2121385,severo-kurilsk,RU,1644099764,50.6789,156.125,28.36,82,99,7.9
2516860,guia de isora,ES,1644099765,28.2115,-16.7795,61.43,63,0,1.99
1282256,hithadhoo,MV,1644099765,-0.6,73.0833,81.77,75,81,11.52
4032243,vaini,TO,1644099766,-21.2,-175.2,78.96,100,100,14.97
1006984,east london,ZA,1644099766,-33.0153,27.9116,69.35,88,100,16.53
1803616,liling,CN,1644099766,27.6667,113.5,40.89,88,100,2.06
4972220,millinocket,US,1644099767,45.6573,-68.7098,12.34,62,0,13.8
2122090,pevek,RU,1644099448,69.7008,170.3133,-27.63,99,34,2.24
4021858,guerrero negro,MX,1644099171,27.9769,-114.0611,70.09,22,0,7.52
2110227,butaritari,KI,1644099094,3.0707,172.7902,82.67,73,52,19.33
2729907,longyearbyen,SJ,1644099451,78.2186,15.6401,10.24,56,20,23.02
3336897,la rioja,ES,1644099480,42.25,-2.5,33.12,89,8,4.52
1623197,tual,ID,1644099767,-5.6667,132.75,83.3,74,100,9.75
3985710,cabo san lucas,MX,1644099689,22.8909,-109.9124,74.61,63,20,4.0
1174062,kharan,PK,1644099768,28.5833,65.4167,58.01,21,0,5.93
1687186,sarangani,PH,1644099768,5.4033,125.4636,81.16,78,62,28.19
2512186,puerto del rosario,ES,1644099378,28.5004,-13.8627,65.88,82,0,10.36
4035715,avarua,CK,1644099235,-21.2078,-159.775,78.85,89,75,18.41
1495626,pangody,RU,1644099234,65.85,74.4859,-18.62,100,100,3.02
5282297,bethel,US,1644099769,41.3712,-73.414,24.89,71,0,1.99
1516048,hovd,MN,1644099447,48.0056,91.6419,-13.43,78,21,4.09
3423146,ilulissat,GL,1644099769,69.2167,-51.1,-0.9,75,100,8.41
2021031,kyren,RU,1644099770,51.6828,102.1408,11.5,83,90,1.7
2036933,helong,CN,1644099770,42.5397,128.9972,2.07,83,29,7.31
2013279,vostok,RU,1644099770,46.4856,135.8833,-12.46,99,100,3.0
3652764,puerto ayora,EC,1644099771,-0.7393,-90.3518,78.55,85,70,5.99
3939168,huarmey,PE,1644099771,-10.0681,-78.1522,75.25,73,12,11.88
3383434,nieuw amsterdam,SR,1644099771,5.8833,-55.0833,78.82,94,40,0.0
3347019,namibe,AO,1644099772,-15.1961,12.1522,73.35,67,100,10.49
2128975,nemuro,JP,1644099772,43.3236,145.575,22.69,73,90,17.72
4034307,mahina,PF,1644099772,-17.5065,-149.489,85.77,58,40,11.5
2208248,kaitangata,NZ,1644099772,-46.2817,169.8464,54.93,60,95,5.86
3386213,touros,BR,1644099773,-5.1989,-35.4608,81.5,69,10,13.31
6144312,sept-iles,CA,1644099555,50.2001,-66.3821,4.05,57,20,1.01
2180815,tuatapere,NZ,1644099773,-46.1333,167.6833,55.81,78,99,3.4
2012530,zhigansk,RU,1644099774,66.7697,123.3711,-26.63,98,100,5.95
304183,bayir,TR,1644099774,37.2687,28.2167,30.72,69,27,1.57
4031574,provideniya,RU,1644099514,64.3833,-173.3,-4.45,85,2,10.25
2313762,libenge,CD,1644099775,3.65,18.6333,75.15,24,100,1.14
3443061,chuy,UY,1644099109,-33.6971,-53.4616,70.03,84,65,9.33
5848280,kapaa,US,1644099775,22.0752,-159.319,79.48,67,0,1.99
2013258,vrangel,RU,1644099775,42.7297,133.0839,9.48,65,6,16.91
6167817,torbay,CA,1644099776,47.6666,-52.7314,50.58,94,100,29.93
215771,isiro,CD,1644099776,2.7739,27.616,69.3,31,100,2.77
292968,abu dhabi,AE,1644099678,24.4667,54.3667,69.96,77,40,16.11
2090021,namatanai,PG,1644099776,-3.6667,152.4333,83.26,70,66,10.2
5855927,hilo,US,1644099551,19.7297,-155.09,75.79,79,100,5.75
3894426,coihaique,CL,1644099777,-45.5752,-72.0662,68.61,49,75,9.22
2155415,new norfolk,AU,1644099777,-42.7826,147.0587,63.66,60,96,2.42
2229761,kribi,CM,1644099777,2.95,9.9167,79.03,83,17,6.46
4566178,maricao,PR,1644099778,18.1808,-66.9799,71.53,90,93,5.97
1623446,tomohon,ID,1644099778,1.3346,124.8392,68.94,95,100,3.62
934322,mahebourg,MU,1644099778,-20.4081,57.7,79.25,89,40,11.5
3358666,aranos,NA,1644099779,-24.1333,19.1167,80.44,34,61,12.03
1256029,siruguppa,IN,1644099779,15.6333,76.9,67.78,46,60,5.95
3452440,prata,BR,1644099779,-19.3072,-48.9242,74.37,86,97,4.63
697608,pershotravneve,UA,1644099780,51.3929,28.8684,32.13,91,96,11.27
2392087,porto novo,BJ,1644099376,6.4965,2.6036,82.22,86,0,6.87
1806840,huilong,CN,1644099780,31.8111,121.655,37.04,60,37,5.26
3681966,gramalote,CO,1644099780,7.8875,-72.7975,72.23,91,89,1.01
3412093,vestmannaeyjar,IS,1644099781,63.4427,-20.2734,29.3,67,92,10.67
2057087,kupang,ID,1644099781,-10.1667,123.5833,78.91,85,58,10.56
6170031,tuktoyaktuk,CA,1644099781,69.4541,-133.0374,-32.8,75,20,11.5
1707108,latung,PH,1644099782,5.5,120.8833,81.48,73,100,4.21
922806,kipushi,CD,1644099782,-11.7667,27.2333,62.08,98,100,4.0
2146219,hervey bay,AU,1644099681,-25.2986,152.8535,75.04,82,89,11.99
5660340,kalispell,US,1644099280,48.1958,-114.3129,42.84,57,100,11.01
6111862,port hardy,CA,1644099446,50.6996,-127.4199,46.58,81,75,9.22
3598787,champerico,GT,1644099783,14.3,-91.9167,90.14,61,2,12.68
7117100,vila,PT,1644099310,42.0304,-8.1588,40.33,80,0,4.45
4004293,ixtapa,MX,1644099785,20.7,-105.2,76.23,69,40,13.8
3841956,parana,AR,1644099785,-31.732,-60.5238,76.57,57,33,16.71
286621,salalah,OM,1644099786,17.0151,54.0924,75.29,69,40,5.75
5192726,harrisburg,US,1644099492,40.2737,-76.8844,27.45,57,75,4.0
492860,sindor,RU,1644099787,62.8629,51.8905,-4.76,99,34,3.74
568633,chernoyerkovskaya,RU,1644099787,45.4331,37.7686,37.9,96,100,9.06
3665202,aripuana,BR,1644099787,-9.1667,-60.6333,77.09,96,69,2.28
1819729,victoria,HK,1644099691,22.2855,114.1577,60.24,83,100,1.99
3839307,rawson,AR,1644099468,-43.3002,-65.1023,62.17,45,0,10.49
2348595,azare,NG,1644099788,11.6765,10.1948,64.99,23,0,11.68
5742974,north bend,US,1644099788,43.4065,-124.2243,59.92,80,0,9.22
3904906,santa cruz,BO,1644099789,-17.8,-63.1667,71.65,94,100,9.22
3865086,bahia blanca,AR,1644099615,-38.7196,-62.2724,63.79,53,98,14.63
462988,zhirnov,RU,1644099789,48.1709,41.1261,20.52,81,95,8.61
609919,kuryk,KZ,1644099789,43.2,51.65,36.48,66,100,17.25
579432,balezino,RU,1644099790,57.9796,53.0106,16.36,95,100,6.73
3533462,acapulco,MX,1644099790,16.8634,-99.8901,84.02,70,0,5.75
4034496,fare,PF,1644099790,-16.7,-151.0167,81.36,72,16,20.27
5880054,barrow,US,1644099791,71.2906,-156.7887,-18.38,69,0,12.66
3430443,necochea,AR,1644099791,-38.5473,-58.7368,61.03,69,100,20.42
6690297,saint-leu,RE,1644099792,-21.15,55.2833,79.66,82,100,6.11
6096551,pangnirtung,CA,1644099792,66.1451,-65.7125,-27.31,100,100,1.14
3451234,rio claro,BR,1644099792,-22.4114,-47.5614,73.4,68,95,5.75
4500920,brigantine,US,1644099713,39.4101,-74.3646,30.25,50,0,14.97
2123814,leningradskiy,RU,1644099230,69.3833,178.4167,-22.02,96,8,3.74
509483,pinega,RU,1644099793,64.7001,43.3936,5.81,91,100,9.37
1649150,bengkulu,ID,1644099793,-3.8004,102.2655,72.93,95,100,9.95
2270385,camacha,PT,1644099449,33.0833,-16.3333,62.53,82,40,20.71
5861897,fairbanks,US,1644099654,64.8378,-147.7164,11.3,77,100,0.0
2126710,beringovskiy,RU,1644099304,63.05,179.3167,-10.55,93,54,13.78
321022,bitlis,TR,1644099794,38.5,42.25,5.63,60,1,3.38
935255,sainte-marie,RE,1644099794,-20.8968,55.5496,80.76,87,75,14.97
4362001,mayo,US,1644099795,38.8876,-76.5119,32.86,47,0,4.0
2096742,goroka,PG,1644099795,-6.0834,145.3873,61.43,96,100,2.46
3418910,upernavik,GL,1644099787,72.7868,-56.1549,-4.14,99,100,2.8
4033543,teahupoo,PF,1644099795,-17.8333,-149.2667,80.56,74,29,20.09
1015776,bredasdorp,ZA,1644099237,-34.5322,20.0403,68.29,86,87,14.45
1265452,kushalgarh,IN,1644099796,23.199,74.4507,61.02,26,0,4.54
3691582,talara,PE,1644099796,-4.5772,-81.2719,74.26,74,7,12.68
6014443,lac du bonnet,CA,1644099797,50.2536,-96.0612,10.09,87,100,4.5
3421319,nuuk,GL,1644099797,64.1835,-51.7216,7.41,85,100,6.91
2094342,kavieng,PG,1644099237,-2.5744,150.7967,82.29,75,53,4.59
218680,boende,CD,1644099797,-0.2167,20.8667,74.3,65,49,1.97
1267390,kavaratti,IN,1644099798,10.5669,72.642,78.08,63,15,8.9
6137462,saint-augustin,CA,1644099305,51.226,-58.6502,3.78,94,100,18.1
5512909,spring valley,US,1644099266,36.108,-115.245,63.95,19,40,0.0
2090990,mendi,PG,1644099535,-6.1761,143.6513,56.35,96,100,1.48
986717,kruisfontein,ZA,1644099798,-34.0033,24.7314,67.89,80,52,16.71
4061234,fairhope,US,1644099364,30.523,-87.9033,51.84,40,0,9.22
3696183,iquitos,PE,1644099731,-3.7481,-73.2472,77.04,94,75,3.44
921786,mitsamiouli,KM,1644099799,-11.3847,43.2844,81.82,75,98,10.25
646005,mikkeli,FI,1644099799,61.6886,27.2723,23.11,93,100,4.61
554830,izhma,RU,1644099799,65.0083,53.9113,-10.08,100,83,2.19
2026696,bikin,RU,1644099800,46.8161,134.26,-17.68,100,91,2.48
3698359,chicama,PE,1644099800,-7.8447,-79.1469,66.74,63,11,10.27
2014624,udachnyy,RU,1644099592,66.4167,112.4,-32.17,100,91,2.68
3474574,palmas,BR,1644099800,-10.2128,-48.3603,82.27,78,40,4.61
146214,pafos,CY,1644099801,34.7667,32.4167,49.78,76,40,2.3
1645528,denpasar,ID,1644099801,-8.65,115.2167,80.26,88,40,6.91
317106,denizli,TR,1644099707,37.8402,29.0698,34.65,58,40,3.06
1730802,andili,PH,1644099801,7.462,125.9701,75.92,95,41,3.31
4726521,san patricio,US,1644099444,28.017,-97.5169,55.81,28,0,4.85
1691538,romblon,PH,1644099802,12.5751,122.2708,78.89,75,98,22.06
2409914,bonthe,SL,1644099442,7.5264,-12.505,77.52,84,42,7.47
1687894,santa rosa,PH,1644099777,14.3122,121.1114,78.78,71,94,14.58
2152659,port macquarie,AU,1644099496,-31.4333,152.9167,67.89,74,96,14.94
2098329,daru,PG,1644099802,-9.0763,143.2092,78.26,89,94,13.02
2181625,te anau,NZ,1644099240,-45.4167,167.7167,56.73,56,13,4.05
2139521,noumea,NC,1644099803,-22.2763,166.4572,78.78,79,18,8.9
3393536,olinda,BR,1644099655,-8.0089,-34.8553,82.13,65,0,8.05
107304,buraydah,SA,1644099778,26.326,43.975,50.45,43,0,8.03
343292,asosa,ET,1644099803,10.0667,34.5333,61.95,32,26,5.57
3347353,menongue,AO,1644099804,-14.6585,17.691,59.59,98,100,2.84
2120048,ust-nera,RU,1644099804,64.5667,143.2,-24.47,69,7,2.42
1852357,shimoda,JP,1644099804,34.6667,138.95,35.1,61,5,26.44
2092164,lorengau,PG,1644099805,-2.0226,147.2712,82.44,73,81,6.76
2194098,ahipara,NZ,1644099733,-35.1667,173.1667,73.08,93,99,5.99
1788450,xinzhou,CN,1644099805,38.4092,112.7333,23.77,32,33,1.05
608872,makat,KZ,1644099806,47.6469,53.3463,27.18,84,100,20.22
712602,bilky,UA,1644099806,48.315,23.1325,32.52,94,99,1.1
2126199,cherskiy,RU,1644099083,68.75,161.3,-32.85,97,17,1.52
706200,khrystynivka,UA,1644099806,48.8249,29.9681,28.69,92,100,9.1
1062663,mahajanga,MG,1644099807,-15.7167,46.3167,82.42,74,40,13.8
5367788,lompoc,US,1644099635,34.6391,-120.4579,75.51,31,0,13.8
1529484,hami,CN,1644099517,42.8,93.45,26.37,28,100,8.99
1714733,dingle,PH,1644099066,10.9995,122.6711,74.28,84,92,10.6
2015352,terney,RU,1644099808,45.0503,136.6092,2.21,80,67,13.4
2400547,tsogni,GA,1644099808,-2.7942,10.0988,75.7,88,35,4.72
2319133,warri,NG,1644099808,5.5167,5.75,79.21,78,2,3.6
1502879,kolosovka,RU,1644099809,56.4678,73.611,9.59,84,100,7.56
1701054,marawi,PH,1644099377,7.9986,124.2928,65.64,91,11,1.45
1529660,aksu,CN,1644099516,41.1231,80.2644,22.62,64,80,5.79
2982343,royan,FR,1644099809,45.6285,-1.0281,44.78,85,6,5.55
2511180,santa cruz de la palma,ES,1644099810,28.6835,-17.7642,67.14,68,0,8.05
3361934,saldanha,ZA,1644099810,-33.0117,17.9442,73.45,75,34,4.14
779350,karasjok,NO,1644099810,69.4719,25.5112,26.71,88,100,25.05
3421719,narsaq,GL,1644099380,60.9167,-46.05,1.62,71,42,7.45
3929631,san isidro,PE,1644099811,-12.1167,-77.05,76.01,71,0,5.75
6316343,alta floresta,BR,1644099372,-9.8756,-56.0861,80.42,94,40,1.14
3466704,castro,BR,1644099811,-24.7911,-50.0119,67.98,96,68,9.35
2470260,jabinyanah,TN,1644099812,35.035,10.9081,57.0,78,100,8.95
2387435,damara,CF,1644099812,4.9608,18.7035,72.82,23,99,3.49
2178753,kirakira,SB,1644099591,-10.4544,161.9205,83.95,78,88,7.36
3129371,arroyo,ES,1644099812,41.6096,-4.7969,35.6,83,0,11.5
2427336,moussoro,TD,1644099813,13.6408,16.4901,64.81,15,0,15.39
1726449,basco,PH,1644099813,20.4487,121.9702,72.41,74,53,28.36
2145554,ulladulla,AU,1644099813,-35.35,150.4667,69.87,72,99,11.77
777019,vardo,NO,1644099814,70.3705,31.1107,26.85,79,97,28.74
1486321,yar-sale,RU,1644099442,66.8333,70.8333,-12.82,100,80,2.28
2171465,clarence town,AU,1644099814,-32.5833,151.7833,73.94,81,86,9.55
3932145,pisco,PE,1644099662,-13.7,-76.2167,74.01,83,0,8.05
2686469,ornskoldsvik,SE,1644099663,63.2909,18.7153,6.62,92,53,3.44
1185106,jamalpur,BD,1644099815,24.9167,89.9333,56.26,83,0,3.71
6551871,kronshagen,DE,1644099815,54.3433,10.0994,42.91,93,100,17.27
2112309,katsuura,JP,1644099374,35.1333,140.3,32.14,56,8,11.81
1651810,airai,TL,1644099375,-8.9266,125.4092,60.8,91,93,1.5
3450144,santa luzia,BR,1644099393,-19.7697,-43.8514,76.1,81,20,2.3
1218436,sayat,TM,1644099816,38.7839,63.8803,48.07,68,100,15.12
4151316,clearwater,US,1644099781,27.9659,-82.8001,62.98,77,100,8.01
2016422,slyudyanka,RU,1644099816,51.6594,103.7061,15.39,80,96,6.04
6533368,moranbah,AU,1644099816,-22.0016,148.0466,72.16,62,2,20.18
3388847,sao felix do xingu,BR,1644099817,-6.6447,-51.995,77.11,87,97,2.26
5838199,sheridan,US,1644099817,44.8333,-106.9173,44.98,39,100,8.01
2264557,ponta do sol,PT,1644099817,32.6667,-17.1,66.0,55,4,11.32
3175788,oga,IT,1644099818,46.4631,10.347,29.7,52,4,1.97
779622,havoysund,NO,1644099818,70.9963,24.6622,29.28,71,52,34.02
3357804,eenhana,NA,1644099818,-17.4667,16.3333,69.55,84,100,12.57
924572,nsanje,MW,1644099819,-16.92,35.262,71.4,96,22,1.32
1799629,nanyang,CN,1644099819,32.9947,112.5328,34.34,42,99,8.25
2892786,karlstadt,DE,1644099819,49.9603,9.7722,41.68,81,93,15.84
525426,sobolevo,RU,1644099820,54.4299,31.8996,30.56,96,100,14.09
2070998,geraldton,AU,1644099135,-28.7667,114.6,73.81,88,100,10.36
2527087,tiznit,MA,1644099820,29.5833,-9.5,64.96,26,80,3.89
2112802,hasaki,JP,1644099176,35.7333,140.8333,19.8,44,18,12.91
183027,nyahururu,KE,1644099821,0.0421,36.3673,56.5,73,100,2.51
3571592,rock sound,BS,1644099821,24.9,-76.2,74.35,75,0,11.95
2271968,aljezur,PT,1644099822,37.3191,-8.8033,52.12,90,9,6.93
110690,faya,SA,1644099822,18.3851,42.4509,51.91,78,7,3.53
2618795,klaksvik,FO,1644099822,62.2266,-6.589,32.92,81,78,23.02
128477,kashan,IR,1644099823,33.9831,51.4364,44.19,42,0,6.91
3448903,sao joao da barra,BR,1644099823,-21.6403,-41.0511,77.36,83,32,26.91
1067565,beloha,MG,1644099823,-25.1667,45.05,75.31,83,100,19.13
3461733,guiratinga,BR,1644099824,-16.3494,-53.7583,75.67,85,39,3.13
3397967,itaituba,BR,1644099824,-4.2761,-55.9836,78.96,100,40,2.3
4226722,toccoa,US,1644099677,34.5773,-83.3324,48.85,41,0,0.0
1254163,thiruvananthapuram,IN,1644099824,8.4833,76.9167,78.78,89,20,1.14
2425791,kibala,TD,1644099825,9.1104,18.3463,73.35,35,0,0.0
2869449,moosburg,DE,1644099825,48.4667,11.9333,38.32,78,0,10.36
5905393,bonavista,CA,1644099826,48.6499,-53.1147,42.12,99,100,7.09
2644210,liverpool,GB,1644099812,53.4106,-2.9779,51.15,81,40,10.0
2108502,honiara,SB,1644099826,-9.4333,159.95,83.89,77,84,4.54
7671223,kloulklubed,PW,1644099826,7.0419,134.2556,75.7,80,98,21.88
1650527,balikpapan,ID,1644099550,-1.2675,116.8289,76.19,100,75,9.22
1735106,georgetown,MY,1644099600,5.4112,100.3354,79.9,88,20,2.3
5969025,haines junction,CA,1644099827,60.7522,-137.5108,31.95,69,100,6.91
1082243,ambilobe,MG,1644099240,-13.2,49.05,72.95,95,95,4.25
1648082,boyolangu,ID,1644099828,-8.1181,111.8935,74.26,87,36,1.99
3980230,viesca,MX,1644099828,25.35,-102.8,57.56,30,11,6.49
496519,sertolovo,RU,1644099828,60.1444,30.2017,25.5,78,100,8.05
5802636,mattawa,US,1644099829,46.7379,-119.9028,54.12,69,21,3.87
1164970,shujaabad,PK,1644099829,29.8797,71.2931,50.05,48,3,4.74
1855540,naze,JP,1644099585,28.3667,129.4833,45.52,68,100,17.16
5563839,fortuna,US,1644099239,40.5982,-124.1573,61.86,61,0,4.0
5882953,aklavik,CA,1644099447,68.2191,-135.0107,-35.57,66,40,0.0
2447513,arlit,NE,1644099829,18.7369,7.3853,60.82,15,0,4.18
3699088,cajamarca,PE,1644099830,-7.1638,-78.5003,60.87,72,75,2.3
3628423,san felipe,VE,1644099830,10.3399,-68.7425,78.53,63,20,9.24
4386419,festus,US,1644099830,38.2206,-90.396,38.61,44,0,8.03
2077895,alice springs,AU,1644099806,-23.7,133.8833,62.15,82,0,0.0
1024312,mocuba,MZ,1644099595,-16.8392,36.9856,68.94,96,16,4.25
933995,souillac,MU,1644099831,-20.5167,57.5167,79.36,89,40,11.5
1831173,kampong cham,KH,1644099831,11.9934,105.4635,72.81,70,29,10.65
934479,grand gaube,MU,1644099584,-20.0064,57.6608,79.38,77,100,5.99
3420846,qaqortoq,GL,1644099832,60.7167,-46.0333,1.9,74,52,6.67
2137773,vao,NC,1644099444,-22.6667,167.4833,80.08,86,34,11.99
2013375,vitim,RU,1644099832,59.4511,112.5578,8.17,96,100,4.94
3404558,cabedelo,BR,1644099234,-6.9811,-34.8339,79.47,69,23,11.59
2138555,poum,NC,1644099833,-20.2333,164.0167,80.4,75,100,3.85
3129839,aras,ES,1644099833,42.5617,-2.356,37.06,80,0,9.22
4103957,cabot,US,1644099833,34.9745,-92.0165,45.57,47,0,6.91
2656719,aylesbury,GB,1644099834,51.8167,-0.8146,50.85,91,100,7.0
5504003,fernley,US,1644099834,39.608,-119.2518,57.31,27,14,4.34
2742416,barcelos,PT,1644099576,41.5388,-8.6151,53.85,80,1,5.7
296852,erzin,TR,1644099834,36.9559,36.2,41.72,77,43,3.44
1802204,luancheng,CN,1644099835,37.8792,114.6517,19.56,41,13,1.01
57000,hobyo,SO,1644099835,5.3505,48.5268,75.56,72,3,10.85
1488206,ust-ishim,RU,1644099835,57.6935,71.1665,13.01,91,100,4.54
2038665,alihe,CN,1644099836,50.5667,123.7167,-7.65,97,87,3.27
649924,kuusamo,FI,1644099836,65.9667,29.1833,17.64,86,100,12.66
609924,emba,KZ,1644099836,48.8264,58.1442,19.11,95,100,4.07
643497,oulainen,FI,1644099837,64.2667,24.8,28.26,95,94,7.18
1185239,sarankhola,BD,1644099837,22.3082,89.7897,57.13,62,0,4.32
1529376,korla,CN,1644099662,41.7597,86.1469,22.87,42,72,8.9
2064735,nhulunbuy,AU,1644099837,-12.2333,136.7667,79.41,89,76,3.44
1528998,yumen,CN,1644099838,40.2833,97.2,15.31,39,100,13.04
562580,foki,RU,1644099838,56.693,54.3499,16.07,96,100,3.15
1052373,beira,MZ,1644099838,-19.8436,34.8389,82.49,65,75,14.97
1506268,gornopravdinsk,RU,1644099516,60.05,69.9,16.54,98,100,2.95
3899695,ancud,CL,1644099450,-41.8697,-73.8203,68.23,63,15,4.76
1011918,danielskuil,ZA,1644099839,-28.1887,23.5395,68.63,60,12,8.41
1153668,chiang rai,TH,1644099839,19.9167,99.9167,66.18,96,75,8.05
5847411,kahului,US,1644099840,20.8947,-156.47,82.42,66,40,11.5
1266397,kodinar,IN,1644099840,20.7903,70.7031,62.49,76,2,8.41
3945985,camana,PE,1644099840,-16.6228,-72.7111,72.84,73,13,6.29
986134,kuruman,ZA,1644099841,-27.4524,23.4325,70.61,61,47,11.07
777682,skjervoy,NO,1644099841,70.0311,20.9714,31.46,66,95,21.59
3663517,manaus,BR,1644099841,-3.1019,-60.025,84.7,83,40,2.3
5392171,san jose,US,1644099599,37.3394,-121.895,67.86,39,100,0.0
3397865,itaueira,BR,1644099842,-7.6033,-43.0256,80.06,64,54,2.24
5942913,dryden,CA,1644099842,49.7833,-92.7503,8.89,72,100,11.5
3058083,poltar,SK,1644099842,48.4309,19.7941,32.76,81,57,4.29
53654,mogadishu,SO,1644099843,2.0371,45.3438,76.89,83,13,15.82
2138607,pouebo,NC,1644099843,-20.4,164.5667,82.71,63,98,5.3
4946620,palmer,US,1644099734,42.1584,-72.3287,21.81,58,20,3.0
1798760,pingliang,CN,1644099843,35.5392,106.6861,18.41,96,100,2.75
191038,kitui,KE,1644099844,-1.367,38.0106,67.89,64,100,1.59
964420,port elizabeth,ZA,1644099797,-33.918,25.5701,70.11,94,40,16.11
1625929,sungaipenuh,ID,1644099844,-2.0833,101.3833,63.34,99,100,1.81
5983720,iqaluit,CA,1644099845,63.7506,-68.5145,-27.67,68,75,2.3
6620339,karratha,AU,1644099804,-20.7377,116.8463,83.61,74,74,7.67
1731248,alugan,PH,1644099845,12.2188,125.4808,79.45,76,98,16.4
2191562,dunedin,NZ,1644099845,-45.8742,170.5036,53.8,78,58,5.01
1106643,quatre cocos,MU,1644099846,-20.2078,57.7625,79.09,82,100,17.4
906044,monze,ZM,1644099846,-16.2833,27.4833,64.26,98,67,5.14
3662252,sao paulo de olivenca,BR,1644099846,-3.3783,-68.8725,78.42,80,87,2.55
3372760,praia da vitoria,PT,1644099806,38.7333,-27.0667,57.76,94,20,15.82
5919850,chapais,CA,1644099515,49.7834,-74.8492,-2.42,86,94,7.56
5924351,clyde river,CA,1644099141,70.4692,-68.5914,-19.77,87,100,4.81
1637001,luwuk,ID,1644099788,-0.9516,122.7875,76.89,85,100,2.71
286245,sur,OM,1644099847,22.5667,59.5289,71.01,54,0,6.8
1488429,uray,RU,1644099847,60.1247,64.7758,17.83,97,100,6.13
3115824,muros,ES,1644099848,42.7762,-9.0603,51.24,73,0,11.81
10722858,svetlogorsk,BY,1644099848,52.6333,29.7333,31.98,87,100,14.54
3664078,humaita,BR,1644099605,-7.5061,-63.0208,78.48,84,100,3.27
3466165,cidreira,BR,1644099848,-30.1811,-50.2056,74.91,89,100,3.87
4269392,chanute,US,1644099849,37.6792,-95.4572,42.08,52,0,16.11
1855342,nishihara,JP,1644099849,26.1842,127.7558,56.48,54,20,16.11
3893629,coquimbo,CL,1644099849,-29.9533,-71.3436,65.93,77,75,11.5
3846915,libertador general san martin,AR,1644099850,-23.8064,-64.7876,79.97,71,61,1.92
2986626,plouzane,FR,1644099850,48.3833,-4.6167,50.32,87,75,18.41
324190,alanya,TR,1644099850,36.5438,31.9998,44.73,52,0,5.86
1519924,kushmurun,KZ,1644099851,52.4503,64.6311,16.32,82,100,7.96
2299349,konongo,GH,1644099851,6.6167,-1.2167,78.75,68,61,4.14
3899539,antofagasta,CL,1644099851,-23.65,-70.4,69.08,72,6,7.81
2013639,verkhnevilyuysk,RU,1644099852,63.4453,120.3167,-23.44,100,77,2.55
3421193,paamiut,GL,1644099852,61.994,-49.6678,-4.04,86,77,10.51
1512019,aksarka,RU,1644099852,66.5606,67.7975,-20.25,100,64,3.56
925498,mzimba,MW,1644099853,-11.9,33.6,61.66,97,93,4.27
5374920,morro bay,US,1644099702,35.3658,-120.8499,75.65,36,74,6.87
2377457,nouadhibou,MR,1644099307,20.931,-17.0347,66.18,94,0,14.97
939676,willowmore,ZA,1644099853,-33.2926,23.4895,61.43,86,19,13.29
3466980,caravelas,BR,1644099728,-17.7125,-39.2481,77.67,79,100,9.08
2288105,grand-lahou,CI,1644099854,5.1367,-5.0242,79.79,87,6,6.31
1624725,tarakan,ID,1644099854,3.3,117.6333,74.7,100,75,10.36
935214,saint-pierre,RE,1644099854,-21.3393,55.4781,80.28,74,0,9.22
3893726,constitucion,CL,1644099056,-35.3333,-72.4167,67.78,60,2,16.2
4034551,faanui,PF,1644099175,-16.4833,-151.75,81.68,72,13,19.51
933734,gweta,BW,1644099855,-20.1833,25.2333,75.49,59,75,14.94
3372964,lagoa,PT,1644099850,39.05,-27.9833,58.96,74,17,17.58
286987,nizwa,OM,1644099855,22.9333,57.5333,67.51,32,0,0.11
2120591,tilichiki,RU,1644099522,60.4667,166.1,-6.95,77,19,8.41
5197085,lancaster,US,1644099856,40.2504,-76.2499,26.1,62,20,3.0
3175096,lasa,IT,1644099856,46.6166,10.7002,36.86,46,3,3.31
2208485,zlitan,LY,1644099831,32.4674,14.5687,60.15,57,90,2.53
479071,umba,RU,1644099857,66.6871,34.3429,18.86,95,100,15.93
1252958,wankaner,IN,1644099857,22.6167,70.9333,63.55,80,0,7.07
3372472,vila franca do campo,PT,1644099373,37.7167,-25.4333,59.2,82,89,11.39
212902,kindu,CD,1644099857,-2.95,25.95,67.08,98,66,1.48
964712,plettenberg bay,ZA,1644099858,-34.0527,23.3716,67.48,87,30,11.88
1133310,mirabad,AF,1644099858,30.4362,61.8383,59.58,25,0,10.13
529368,marfino,RU,1644099859,55.7028,37.3822,10.35,85,100,8.95
654899,kajaani,FI,1644099859,64.2273,27.7285,21.25,86,100,11.5
6149996,smithers,CA,1644099859,54.7804,-127.1743,41.32,65,100,5.75
3628473,san cristobal,VE,1644099738,7.7669,-72.225,73.58,85,84,2.55
1259184,puri,IN,1644099860,19.8,85.85,57.72,46,99,5.35
5364271,laguna,US,1644099173,38.421,-121.4238,68.65,47,0,1.01
325361,adana,TR,1644099707,36.985,35.2881,42.82,87,0,0.0
2125693,evensk,RU,1644099860,61.95,159.2333,16.97,41,10,25.72
3405215,bonfim,BR,1644099861,3.0833,-59.95,87.85,49,99,4.68
1259395,porbandar,IN,1644099861,21.6422,69.6093,66.29,70,0,5.26
5464806,deming,US,1644099861,32.2687,-107.7586,53.24,21,0,0.0
2522325,aguimes,ES,1644099862,27.9054,-15.4461,65.03,26,0,6.91
1283334,birin,NP,1644099862,26.8865,88.0718,36.41,81,1,4.25
2387546,bozoum,CF,1644099862,6.3193,16.3799,69.87,21,60,3.13
3355672,luderitz,NA,1644099863,-26.6481,15.1594,67.28,81,95,5.12
3452712,porto murtinho,BR,1644099863,-21.6989,-57.8825,76.53,91,94,8.39
2094027,kieta,PG,1644099863,-6.2167,155.6333,83.39,77,85,7.72
2134814,sola,VU,1644099799,-13.8833,167.55,82.29,78,99,19.22
317844,cumra,TR,1644099864,37.5732,32.7745,21.34,82,2,0.4
2179103,whitianga,NZ,1644099864,-36.8333,175.7,72.01,97,98,8.19
2785990,stoumont,BE,1644099864,50.4091,5.8087,43.66,92,100,16.8
4944903,nantucket,US,1644099865,41.2835,-70.0995,26.74,56,0,19.57
2071860,esperance,AU,1644099865,-33.8667,121.9,66.04,68,5,17.65
3687972,calamar,CO,1644099865,10.2511,-74.9146,84.15,45,55,20.22
1163054,turbat,PK,1644099866,26.0023,63.044,65.08,75,0,1.88
2647311,haverfordwest,GB,1644099866,51.8017,-4.9691,50.05,87,100,20.0
5746545,portland,US,1644099672,45.5234,-122.6762,53.83,75,75,1.99
3419842,sisimiut,GL,1644099449,66.9395,-53.6735,1.08,80,100,13.69
2654970,brae,GB,1644099521,60.3964,-1.353,37.31,59,100,37.02
504269,pudozh,RU,1644099867,61.8099,36.5345,13.84,87,62,10.33
2646557,horsham,GB,1644099867,51.064,-0.3272,51.31,79,40,17.27
3532821,anton lizardo,MX,1644099867,19.05,-95.9833,62.22,62,75,19.55
2013918,ust-maya,RU,1644099868,60.4167,134.5333,-30.32,100,100,1.28
5870133,nome,US,1644099450,64.5011,-165.4064,-2.13,65,0,3.44
6162949,terrace,CA,1644099571,54.5163,-128.6035,42.71,81,100,16.11
6158027,strathroy,CA,1644099868,42.9551,-81.6223,19.49,55,68,6.31
2212775,sabha,LY,1644099868,27.0377,14.4283,54.64,28,0,7.85
1709653,kalawit,PH,1644099869,8.0667,122.5167,77.34,86,86,14.43
1805757,jimo,CN,1644099869,36.3897,120.4622,20.98,49,0,2.24
2396518,port-gentil,GA,1644099869,-0.7193,8.7815,80.56,83,40,4.61
1847947,shingu,JP,1644099870,33.7333,135.9833,38.91,63,50,12.86
1058381,morondava,MG,1644099870,-20.2833,44.2833,81.25,76,100,15.61
2449893,tessalit,ML,1644099588,20.1986,1.0114,64.11,13,0,10.42
5955902,fort nelson,CA,1644099870,58.8053,-122.7002,26.17,96,100,2.08
2063036,port lincoln,AU,1644099871,-34.7333,135.8667,71.69,65,98,16.58
1272502,diu,IN,1644099871,20.7141,70.9822,62.78,72,2,6.96
1498161,muzhi,RU,1644099871,65.3667,64.6667,-17.09,100,65,1.81
1045114,inhambane,MZ,1644099872,-23.865,35.3833,78.13,73,7,16.15
4653638,robertson,US,1644099872,36.5167,-86.8667,35.89,53,0,3.44
6122707,rivers,CA,1644099872,50.0308,-100.2403,0.55,91,99,3.53
1490918,staryy nadym,RU,1644099735,65.6118,72.6842,-19.14,100,100,0.94
3698304,chimbote,PE,1644099873,-9.0853,-78.5783,73.62,75,12,10.25
2510249,torrijos,ES,1644099873,39.9819,-4.2835,50.05,61,5,9.19
302824,pasinler,TR,1644099873,39.9803,41.6764,4.19,84,14,4.61
2242885,camabatela,AO,1644099874,-8.1881,15.375,61.54,95,100,1.12
212730,kisangani,CD,1644099874,0.5167,25.2,70.9,77,100,2.82
5467024,espanola,US,1644099874,35.9911,-106.0806,47.28,47,0,8.34
6050066,la ronge,CA,1644099875,55.1001,-105.2842,-5.55,65,100,4.61
2647356,hastings,GB,1644099875,50.8552,0.5729,51.39,82,100,33.22
866055,priladozhskiy,RU,1644099875,59.85,31.4833,27.63,94,100,10.58
3450083,santa maria,BR,1644099876,-29.6842,-53.8069,81.7,78,20,4.61
2400547,gamba,GA,1644099876,-2.65,10.0,76.41,86,39,5.57
1622318,waingapu,ID,1644099802,-9.6567,120.2641,78.3,88,99,6.22
172515,abu samrah,SY,1644099876,35.3029,37.1841,43.23,83,21,6.22
2219235,awbari,LY,1644099877,26.5921,12.7805,53.47,30,2,7.85
2980335,sainte-savine,FR,1644099877,48.2964,4.0464,40.98,87,0,12.66
1636308,manokwari,ID,1644099735,-0.8667,134.0833,77.99,76,100,3.44
3828545,san jose del guaviare,CO,1644099878,2.5729,-72.6459,84.4,56,84,2.75
3381538,grand-santi,GF,1644099868,4.25,-54.3833,73.6,98,60,3.51
2176639,batemans bay,AU,1644099514,-35.7167,150.1833,66.9,77,100,9.35
3141667,roald,NO,1644099878,62.5833,6.1333,39.34,70,75,18.41
3190813,sisak,HR,1644099878,45.4661,16.3783,39.18,83,94,1.57
1276574,bela,IN,1644099879,25.9333,81.9833,48.99,85,0,3.42
3521108,progreso,MX,1644099879,21.2833,-89.6667,73.51,74,71,17.98
1181065,chitral,PK,1644099879,35.8462,71.7858,34.79,72,100,3.29
6111696,port-cartier,CA,1644099880,50.0334,-66.8654,3.74,84,29,7.47
245785,abeche,TD,1644099880,13.8292,20.8324,65.44,16,1,14.61
1650232,banjar,ID,1644099880,-8.19,114.9675,80.46,88,96,2.93
365742,torit,SS,1644099881,4.4133,32.5678,82.06,27,100,2.17
3395458,maragogi,BR,1644099452,-9.0122,-35.2225,79.3,65,68,10.45
3416888,grindavik,IS,1644099448,63.8424,-22.4338,25.27,80,75,4.61
2186111,ngunguru,NZ,1644099881,-35.6167,174.5,76.15,97,100,12.71
2980080,saint-francois,FR,1644099590,46.4154,3.9054,36.41,93,0,3.44
1863997,fukue,JP,1644099881,32.6881,128.8419,42.12,60,100,26.37
866062,iskateley,RU,1644099882,67.6803,53.1512,-0.13,95,96,11.74
1214658,lhokseumawe,ID,1644099882,5.1801,97.1507,75.76,87,81,5.14
4968234,jay,US,1644099784,44.5039,-70.2162,15.58,69,10,5.01
6254930,palestine,PS,1644099878,31.9216,35.2033,44.94,96,54,8.01
1812256,dongsheng,CN,1644099883,39.8161,109.9776,12.07,47,73,3.49
244878,biltine,TD,1644099883,14.5333,20.9167,63.81,17,1,18.39
2146108,traralgon,AU,1644099883,-38.1833,146.5333,66.85,70,23,6.91
3401845,conceicao do araguaia,BR,1644099735,-8.2578,-49.2647,78.04,89,61,4.45
2246451,saint-louis,SN,1644099884,16.3333,-15.0,76.64,9,0,10.0
3178137,copparo,IT,1644099884,44.893,11.8249,41.67,92,1,1.41
1685422,sulangan,PH,1644099884,11.1373,123.7228,80.17,73,75,18.75
2119283,zyryanka,RU,1644099885,65.75,150.85,-41.01,100,52,2.57
689157,volodarka,UA,1644099885,49.5248,29.9122,32.23,83,100,11.61
4032420,neiafu,TO,1644099885,-18.65,-173.9833,75.88,100,100,5.75
1715335,davila,PH,1644099886,18.4726,120.5763,69.78,79,42,23.29
1627185,sijunjung,ID,1644099886,-0.6876,100.9537,71.29,99,100,1.57
2381972,adrar,MR,1644099886,20.5022,-10.0711,68.22,7,0,9.71
3984997,san quintin,MX,1644099593,30.4833,-115.95,63.0,30,0,9.24
2129868,iwanai,JP,1644099887,42.9744,140.5089,23.88,88,100,8.95
2231564,fontem,CM,1644099887,5.4685,9.8818,70.29,55,33,1.1
3177219,fano,IT,1644099887,43.8204,13.0121,47.93,86,32,4.94
2035836,manzhouli,CN,1644099888,49.6,117.4333,-6.59,96,91,7.31
1490256,talnakh,RU,1644099888,69.4865,88.3972,-17.84,100,99,2.71
3691954,sechura,PE,1644099889,-5.5569,-80.8222,81.23,55,15,18.41
3391889,pitimbu,BR,1644099592,-7.4706,-34.8086,79.39,68,40,11.59
3402648,carutapera,BR,1644099889,-1.195,-46.02,75.49,94,100,7.09
3667244,tesalia,CO,1644099889,2.4859,-75.7292,78.98,73,63,3.44
3146487,raudeberg,NO,1644099374,61.9875,5.1352,38.07,92,100,8.99
5044290,saint anthony,US,1644099890,45.0205,-93.218,25.14,63,0,5.01
1648186,bontang,ID,1644099890,0.1333,117.5,76.41,90,100,7.27
3697441,el alto,PE,1644099890,-4.2714,-81.2147,73.22,71,19,12.59
3408368,acarau,BR,1644099891,-2.8856,-40.12,79.56,79,19,11.61
3470137,belmonte,BR,1644099891,-15.8631,-38.8828,73.9,85,77,7.56
2630299,hofn,IS,1644099891,64.2539,-15.2082,27.19,61,72,11.83
5117949,freeport,US,1644099758,40.6576,-73.5832,27.18,60,75,8.99
2122104,petropavlovsk-kamchatskiy,RU,1644099892,53.0452,158.6483,19.99,58,75,11.18
1165789,sehwan,PK,1644099892,26.4279,67.863,53.42,25,0,5.26
2620279,hirtshals,DK,1644099893,57.5881,9.9592,43.86,88,100,27.47
3579925,saint-georges,GD,1644099893,12.0564,-61.7485,80.28,74,20,18.41
1632694,pangkalanbuun,ID,1644099893,-2.6833,111.6167,73.27,97,100,2.33
1106677,bambous virieux,MU,1644099376,-20.3428,57.7575,79.21,89,40,11.5
303873,nazilli,TR,1644099894,37.9163,28.3223,41.86,64,55,0.72
2562247,marsaxlokk,MT,1644099727,35.8419,14.5431,57.07,94,0,6.91
925789,mulanje,MW,1644099894,-16.0316,35.5,68.59,96,92,3.56
3141310,rorvik,NO,1644099894,64.8621,11.2373,35.11,71,88,21.18
1789289,dayong,CN,1644099374,25.0209,118.2898,53.28,81,98,2.95
1633034,palu,ID,1644099895,-0.8917,119.8707,75.56,94,100,3.18
6324729,halifax,CA,1644099827,44.6453,-63.5724,18.48,87,100,5.01
2121025,srednekolymsk,RU,1644099523,67.45,153.6833,-39.62,99,36,2.55
1626542,sorong,ID,1644099306,-0.8833,131.25,80.55,82,100,12.77
3929611,san jeronimo,PE,1644099895,-11.9472,-75.2829,59.72,63,96,2.59
490914,solomenskoye,RU,1644099896,44.2167,44.3528,28.78,72,67,10.45
5384471,porterville,US,1644099799,36.0652,-119.0168,66.76,36,0,3.8
5853992,wahiawa,US,1644099896,21.5028,-158.0236,77.32,70,75,5.75
4036284,alofi,NU,1644099897,-19.0595,-169.9187,80.49,89,98,8.05
3356832,henties bay,NA,1644099897,-22.116,14.2845,66.85,81,23,4.16
5866063,kenai,US,1644099674,60.5544,-151.2583,32.09,90,0,6.91
2171722,charters towers,AU,1644099897,-20.1,146.2667,74.75,67,1,11.25
1337613,kulhudhuffushi,MV,1644099898,6.6221,73.07,79.63,70,14,5.88
2738381,lata,PT,1644099891,40.1629,-8.3327,49.06,78,0,4.0
305681,kumluca,TR,1644099898,36.3703,30.2869,41.68,64,2,6.26
3838859,rio gallegos,AR,1644099898,-51.6226,-69.2181,69.85,37,40,25.32
1489822,teguldet,RU,1644099871,57.3064,88.1667,15.84,91,100,6.15
370457,maridi,SS,1644099899,4.9158,29.4742,70.81,23,35,4.07
